{
  "posts": [
    {
      "name": "jayesh",
      "mobile": 9696965892,
      "email": "jayesh@gmail.com",
      "department": "chemistry",
      "designation": "developers",
      "id": 1
    },
    {
      "name": "gourish",
      "mobile": 9685745856,
      "email": "gourishnaik050@gmail.com",
      "department": "chemistry",
      "designation": "web developers",
      "id": 2
    },
    {
      "name": "max",
      "mobile": 7849451845,
      "email": "max@gmail.com",
      "department": "botony",
      "designation": "assistant",
      "id": 3
    }
  ],
  "users": [
    {
      "gst": "CHTAGSG",
      "pannumber": "SHSYYJAJ",
      "code": 12124,
      "names": "Gourish",
      "address": "karwar",
      "pincode": "587475",
      "country": "india",
      "state": "karnataka",
      "city": "bangaluru",
      "phone": 9696858574,
      "mail": "max@gmail.com",
      "latitude": "141",
      "longitude": "121",
      "currency": "rupee",
      "id": 1
    },
    {
      "gst": "567XGG",
      "pannumber": "CGSDJS12",
      "code": 12545,
      "names": "Jackmak",
      "address": "mumbai",
      "pincode": "145451",
      "country": "india",
      "state": "karnataka",
      "city": "bangaluru",
      "phone": 9696955655,
      "mail": "sdfs@gmail.com",
      "latitude": "121",
      "longitude": "454",
      "currency": "dollar",
      "id": 2
    },
    {
      "gst": "567XGYT",
      "pannumber": "CGSDJS12",
      "code": 12545,
      "names": "anmol",
      "address": "mumbai",
      "pincode": "145451",
      "country": "india",
      "state": "karnataka",
      "city": "bangaluru",
      "phone": 9696969695,
      "mail": "sdfs@gmail.com",
      "latitude": "121",
      "longitude": "454",
      "currency": "dollar",
      "id": 4
    },
    {
      "gst": "567XQWE",
      "pannumber": "CGSDJS12",
      "code": 12545,
      "names": "karthik",
      "address": "mumbai",
      "pincode": "145451",
      "country": "india",
      "state": "karnataka",
      "city": "bangaluru",
      "phone": 96969694545,
      "mail": "sdfs@gmail.com",
      "latitude": "121",
      "longitude": "454",
      "currency": "dollar",
      "id": 5
    },
    {
      "gst": "567XGYT",
      "pannumber": "CGSDJS12",
      "code": 12545,
      "names": "sandy",
      "address": "mumbai",
      "pincode": "145451",
      "country": "india",
      "state": "karnataka",
      "city": "bangaluru",
      "phone": 9696969695,
      "mail": "sdfs@gmail.com",
      "latitude": "121",
      "longitude": "454",
      "currency": "dollar",
      "id": 6
    },
    {
      "gst": "153637CC",
      "pannumber": "CCHGH1234",
      "code": 12125,
      "names": "mitesh",
      "address": "diu",
      "pincode": "585858",
      "country": "srilanka",
      "state": "maharastra",
      "city": "bangaluru",
      "phone": 9485858589,
      "mail": "mithesh@gmail.com",
      "latitude": "145",
      "longitude": "258",
      "currency": "dollar",
      "id": 7
    },
    {
      "gst": "SGAFT125",
      "pannumber": "PGHTAJ094",
      "code": 12546,
      "names": "rakesh",
      "address": "karwar",
      "pincode": 581317,
      "country": "india",
      "state": "karnataka",
      "city": "bangaluru",
      "phone": 9696969696,
      "mail": "abhish@gmail.com",
      "latitude": "120.33",
      "longitude": "44.55",
      "currency": "rupee",
      "id": 8
    },
    {
      "gst": "FGHDID123",
      "pannumber": "HFHSJ5858",
      "code": 1326526,
      "names": "jitesh",
      "address": "mahesh karwar",
      "pincode": 252526,
      "country": "india",
      "state": "goa",
      "city": "panjim",
      "phone": 9636985656,
      "mail": "gdfes@gmail.com",
      "latitude": "121",
      "longitude": "525",
      "currency": "dollar",
      "id": 9
    },
    {
      "gst": "FGHDID123",
      "pannumber": "MFHSJ5858",
      "code": 1326526,
      "names": "Mashesh",
      "address": "mahesh karwar",
      "pincode": 252526,
      "country": "india",
      "state": "goa",
      "city": "panjim",
      "phone": 9636985656,
      "mail": "gdfes@gmail.com",
      "latitude": "121",
      "longitude": "525",
      "currency": "dollar",
      "id": 10
    },
    {
      "gst": "FGHDID123",
      "pannumber": "HFHSJ5858",
      "code": 1326526,
      "names": "Nehal",
      "address": "mahesh karwar",
      "pincode": 252526,
      "country": "india",
      "state": "maharastra",
      "city": "panjim",
      "phone": 9636985656,
      "mail": "gdfes@gmail.com",
      "latitude": "121",
      "longitude": "525",
      "currency": "dollar",
      "id": 11
    },
    {
      "gst": "FGHDID123",
      "pannumber": "HFHSJ5969",
      "code": 252526,
      "names": "Nilesh",
      "address": "mahesh karwar",
      "pincode": 252526,
      "country": "india",
      "state": "goa",
      "city": "panjim",
      "phone": 6636985656,
      "mail": "nilesh@gmail.com",
      "latitude": "121",
      "longitude": "525",
      "currency": "dollar",
      "id": 12
    },
    {
      "gst": "FGHDID123",
      "pannumber": "HFHSJ5858",
      "code": 1326526,
      "names": "Ritvika",
      "address": "mahesh karwar",
      "pincode": 252526,
      "country": "india",
      "state": "maharastra",
      "city": "panjim",
      "phone": 9636985656,
      "mail": "ritvika@gmail.com",
      "latitude": "121",
      "longitude": "325",
      "currency": "rupee",
      "id": 13
    },
    {
      "gst": "MGHDID123",
      "pannumber": "KJKSJ5858",
      "code": 1326526,
      "names": "Nehal",
      "address": "mahesh karwar",
      "pincode": 252526,
      "country": "india",
      "state": "goa",
      "city": "panjim",
      "phone": 9636985656,
      "mail": "gdfes@gmail.com",
      "latitude": "121",
      "longitude": "525",
      "currency": "dollar",
      "id": 14
    },
    {
      "gst": "FGHDID123",
      "pannumber": "HFHSJ5858",
      "code": 1326526,
      "names": "Mashesh",
      "address": "mahesh karwar",
      "pincode": 252526,
      "country": "india",
      "state": "goa",
      "city": "panjim",
      "phone": 9636985656,
      "mail": "gdfes@gmail.com",
      "latitude": "121",
      "longitude": "525",
      "currency": "dollar",
      "id": 15
    },
    {
      "gst": "FGHDID123",
      "pannumber": "HFHSJ5858",
      "code": 1326526,
      "names": "Naresh",
      "address": "mahesh karwar",
      "pincode": 252526,
      "country": "india",
      "state": "goa",
      "city": "panjim",
      "phone": 9636985656,
      "mail": "gdfes@gmail.com",
      "latitude": "121",
      "longitude": "525",
      "currency": "dollar",
      "id": 16
    },
    {
      "gst": "HDJDKDK",
      "pannumber": "DWDDSDS",
      "code": 55536,
      "names": "naresh",
      "address": "diu",
      "pincode": 125645,
      "country": "india",
      "state": "goa",
      "city": "bangaluru",
      "phone": 255215256,
      "mail": "dm@gmail.com",
      "latitude": 323,
      "longitude": 2323,
      "currency": "yen",
      "id": 17
    }
  ]
}